stop_id,stop_code,stop_name,stop_desc,stop_lat,stop_lon,zone_id,stop_url,location_type,platform_code,parent_station
373_01,,西部営業所,,40.822458,140.661671,373_01,,0,,
373_02,,西部営業所,,40.822389,140.661856,373_02,,0,,
372_01,,平岡大橋,,40.823579,140.661262,372_01,,0,,
372_02,,平岡大橋,,40.823613,140.661108,372_02,,0,,
371_01,,天狗立,,40.826595,140.668591,371_01,,0,,
371_02,,天狗立,,40.826892,140.669419,371_02,,0,,
370_01,,新城駅前,,40.827513,140.672687,370_01,,0,,
370_02,,新城駅前,,40.82773,140.672655,370_02,,0,,
370_03,,新城駅前,,40.8286759028214,140.673399178935,370_03,,0,,
370_04,,新城駅前,,40.828655,140.673284,370_04,,0,,
429_01,,新城下町,,40.831491,140.674647,429_01,,0,,
429_02,,新城下町,,40.8315771447805,140.674580516909,429_02,,0,,
428_03,,厚生病院前,,40.836028,140.679482,428_03,,0,,
428_04,,厚生病院前,,40.836085,140.679372,428_04,,0,,
707_01,,消防学校前,,40.837605,140.680895,707_01,,0,,
707_02,,消防学校前,,40.8376542209182,140.68079262939,707_02,,0,,
427_01,,岡町,,40.840339,140.683359428572,427_01,,0,,
427_02,,岡町,,40.8403935103413,140.683279037475,427_02,,0,,
426_01,,油川小学校前,,40.849717,140.693027,426_01,,0,,
426_02,,油川小学校前,,40.849619,140.693073,426_02,,0,,
424_01,,浄満寺前,,40.852501,140.698063,424_01,,0,,
424_02,,浄満寺前,,40.852306,140.698428,424_02,,0,,
423_01,,油川浪返,,40.850829,140.699986,423_01,,0,,
423_02,,油川浪返,,40.850813,140.700112,423_02,,0,,
422_01,,油川下町,,40.849235,140.701737,422_01,,0,,
422_02,,油川下町,,40.849148,140.701986,422_02,,0,,
421_01,,油川新井田,,40.846312,140.705722,421_01,,0,,
421_02,,油川新井田,,40.846529,140.705572,421_02,,0,,
420_01,,木材港前,,40.84438,140.70907,420_01,,0,,
420_02,,木材港前,,40.844528,140.709091,420_02,,0,,
419_01,,新田,,40.840551,140.716352,419_01,,0,,
419_02,,新田,,40.840941,140.715974,419_02,,0,,
418_01,,森林管理局宿舎前,,40.838887,140.718594,418_01,,0,,
418_02,,森林管理局宿舎前,,40.839461,140.718039,418_02,,0,,
417_01,,沖館,,40.837446,140.720761,417_01,,0,,
417_02,,沖館,,40.837332,140.721196,417_02,,0,,
416_01,,沖館消防分署前,,40.835763,140.723278,416_01,,0,,
416_02,,沖館消防分署前,,40.836091,140.722953,416_02,,0,,
415_01,,沖館仲通り,,40.832986,140.723333,415_01,,0,,
415_02,,沖館仲通り,,40.834158,140.723799571429,415_02,,0,,
414_01,,森林博物館前,,40.83015,140.727444,414_01,,0,,
414_02,,森林博物館前,,40.831051,140.725864,414_02,,0,,
413_01,,駅西口通り,,40.828778,140.728351,413_01,,0,,
413_02,,駅西口通り,,40.829227,140.728571,413_02,,0,,
348_01,,上古川,,40.825151,140.728946,348_01,,0,,
348_02,,上古川,,40.825426,140.729241,348_02,,0,,
348_03,,上古川,,40.826551,140.728324,348_03,,0,,
3_03,③のりば,古川,,40.824031,140.737057,3_03,,0,,
3_04,④のりば,古川,,40.823974,140.737457,3_04,,0,,
3_05,⑤のりば,古川,,40.823873,140.738243,3_05,,0,,
3_06,⑤のりば,古川,,40.82447,140.73581,3_06,,0,,
3_07,⑦のりば,古川,,40.824235,140.737363,3_07,,0,,
3_08,⑧のりば,古川,,40.824198,140.7376,3_08,,0,,
3_09,⑨のりば,古川,,40.823645,140.736386,3_09,,0,,
425_01,,油川仲町,,40.854578,140.695813,425_01,,0,,
425_02,,油川仲町,,40.854083,140.696446,425_02,,0,,
436_01,,十三森,,40.857507,140.693353,436_01,,0,,
436_02,,十三森,,40.856635,140.694152,436_02,,0,,
412_01,,油川駅前,,40.85783,140.691945714286,412_01,,0,,
412_02,,油川駅前,,40.8577506941412,140.692036916509,412_02,,0,,
431_01,,油川中学校前,,40.854237,140.689967,431_01,,0,,
431_02,,油川中学校前,,40.854441,140.690199,431_02,,0,,
432_01,,北高校前,,40.85289,140.686189,432_01,,0,,
432_02,,北高校前,,40.852994,140.685985,432_02,,0,,
433_02,,油川市民センター前,,40.85194,140.683219,433_02,,0,,
430_01,,油川中学校通り,,40.856248,140.694054,430_01,,0,,
430_02,,油川中学校通り,,40.856291,140.693909,430_02,,0,,
617_01,,ガーラタウン前,,40.831862,140.702011,617_01,,0,,
617_02,,ガーラタウン前,,40.832255,140.701892,617_02,,0,,
618_01,,西郵便局前,,40.828448,140.706576,618_01,,0,,
618_02,,西郵便局前,,40.828919,140.706549,618_02,,0,,
349_01,,西上古川,,40.825688,140.725211,349_01,,0,,
349_02,,西上古川,,40.826006,140.725291,349_02,,0,,
384_01,,孫内,,40.757976,140.633165714286,384_01,,0,,
384_02,,孫内,,40.7579261295482,140.633152632337,384_02,,0,,
383_01,,孫内入口,,40.759565,140.634765714286,383_01,,0,,
383_02,,孫内入口,,40.7595589821675,140.634706097957,383_02,,0,,
382_01,,袖上橋,,40.769903,140.630607142858,382_01,,0,,
382_02,,袖上橋,,40.7698849418973,140.630502843296,382_02,,0,,
381_01,,鶴ヶ坂早稲田,,40.77535,140.630089571429,381_01,,0,,
381_02,,鶴ヶ坂早稲田,,40.7753371501241,140.630014331387,381_02,,0,,
380_01,,鶴ヶ坂山本,,40.780763,140.625775571429,380_01,,0,,
380_02,,鶴ヶ坂山本,,40.780887,140.625757,380_02,,0,,
380_03,,鶴ヶ坂山本,,40.78061,140.626135714285,380_03,,0,,
380_04,,鶴ヶ坂山本,,40.780545,140.626047142857,380_04,,0,,
379_01,,鶴ヶ坂,,40.785495,140.629809714286,379_01,,0,,
379_02,,鶴ヶ坂,,40.785574,140.629732714286,379_02,,0,,
647_01,,鶴ヶ坂川合,,40.788824,140.632706,647_01,,0,,
647_02,,鶴ヶ坂川合,,40.789051,140.633003,647_02,,0,,
378_01,,鶴ヶ坂駅前,,40.791138,140.634784142857,378_01,,0,,
378_02,,鶴ヶ坂駅前,,40.79075,140.634422571428,378_02,,0,,
646_01,,鶴ヶ坂田川,,40.794574,140.635257142857,646_01,,0,,
646_02,,鶴ヶ坂田川,,40.794095,140.635198,646_02,,0,,
802_01,,支村,,40.804314,140.641846285714,802_01,,0,,
802_02,,支村,,40.804067,140.641372,802_02,,0,,
377_01,,戸門,,40.807838,140.642746,377_01,,0,,
377_02,,戸門,,40.807368,140.642369571429,377_02,,0,,
376_01,,戸門東口,,40.812746,140.644990428571,376_01,,0,,
376_02,,戸門東口,,40.812787,140.644874857143,376_02,,0,,
375_01,,戸門見通,,40.817081,140.648288,375_01,,0,,
375_02,,戸門見通,,40.81722,140.648325,375_02,,0,,
374_01,,白旗野,,40.820624,140.653947,374_01,,0,,
374_02,,白旗野,,40.820838,140.654159,374_02,,0,,
369_01,,西部市民センター前,,40.82716,140.677861,369_01,,0,,
369_02,,西部市民センター前,,40.827677,140.675908,369_02,,0,,
368_01,,西高校前,,40.826296,140.682115,368_01,,0,,
368_02,,西高校前,,40.826205,140.682948,368_02,,0,,
367_01,,松丘保養園前,,40.825411,140.686701,367_01,,0,,
367_02,,松丘保養園前,,40.825616,140.685884,367_02,,0,,
366_01,,三内霊園入口,,40.82562,140.692167,366_01,,0,,
366_02,,三内霊園入口,,40.825748,140.691676,366_02,,0,,
365_01,,石江,,40.826001,140.695127,365_01,,0,,
365_02,,石江,,40.826216,140.695607,365_02,,0,,
364_01,,あすなろセンター前,,40.824946,140.700904,364_01,,0,,
364_02,,あすなろセンター前,,40.825041,140.701208,364_02,,0,,
363_01,,マツダ自動車前,,40.82478,140.70394,363_01,,0,,
363_02,,マツダ自動車前,,40.825136,140.704767,363_02,,0,,
351_01,,ヤクルト前,,40.82535,140.710612,351_01,,0,,
351_02,,ヤクルト前,,40.825615,140.710765,351_02,,0,,
350_01,,西滝,,40.826419,140.720098,350_01,,0,,
350_02,,西滝,,40.826895,140.719275,350_02,,0,,
139_01,,上滝沢,,40.8258138379087,140.868572099719,139_01,,0,,
139_02,,上滝沢,,40.825852,140.868595,139_02,,0,,
138_01,,滝沢,,40.826673,140.862689142858,138_01,,0,,
138_02,,滝沢,,40.8267,140.86275,138_02,,0,,
137_01,,下滝沢,,40.826931,140.858664571429,137_01,,0,,
137_02,,下滝沢,,40.8270098283449,140.858668684959,137_02,,0,,
649_01,,滝沢住吉,,40.829338,140.852596142857,649_01,,0,,
649_02,,滝沢住吉,,40.8294050039125,140.852631848935,649_02,,0,,
136_01,,三本木,,40.832842,140.840461142857,136_01,,0,,
136_02,,三本木,,40.832875,140.840492987071,136_02,,0,,
626_01,,馬頭観音前,,40.8344529642316,140.835851366005,626_01,,0,,
626_02,,馬頭観音前,,40.834502,140.835909285714,626_02,,0,,
822_01,,動物愛護センター前,,40.838108,140.837802,822_01,,0,,
822_02,,動物愛護センター前,,40.837765,140.837961,822_02,,0,,
763_01,,新総合運動公園前,,40.844192,140.839897,763_01,,0,,
763_02,,新総合運動公園前,,40.8441772,140.839925,763_02,,0,,
141_01,,上野尻,,40.8465231074061,140.841781497002,141_01,,0,,
141_02,,上野尻,,40.84656,140.8418,141_02,,0,,
142_01,,矢田,,40.8476369443387,140.845821487111,142_01,,0,,
142_02,,矢田,,40.847674,140.845767428571,142_02,,0,,
140_01,,宮田,,40.839454,140.82945,140_01,,0,,
140_02,,宮田,,40.839806,140.829852,140_02,,0,,
135_01,,馬屋尻,,40.838296,140.826746571429,135_01,,0,,
135_02,,馬屋尻,,40.838325,140.826894,135_02,,0,,
667_01,,小金沢,,40.838566,140.824641,667_01,,0,,
809_01,,八幡林,,40.835568,140.822201,809_01,,0,,
809_02,,八幡林,,40.835766,140.822061,809_02,,0,,
156_01,,ＪＡ青森支店前,,40.831696,140.81882,156_01,,0,,
156_02,,ＪＡ青森支店前,,40.831755,140.818571,156_02,,0,,
155_01,,後萢通り,,40.829428,140.81375,155_01,,0,,
155_02,,後萢通り,,40.829613,140.813672,155_02,,0,,
808_01,,東跨線橋,,40.828282,140.808555,808_01,,0,,
808_02,,東跨線橋,,40.828499,140.808678,808_02,,0,,
154_01,,八重田通り,,40.826476,140.798104,154_01,,0,,
154_02,,八重田通り,,40.826739,140.798435,154_02,,0,,
46_01,,県立中央病院通り,,40.82763,140.794609,46_01,,0,,
46_02,,県立中央病院通り,,40.82798,140.79423,46_02,,0,,
46_03,,県立中央病院通り,,40.826849,140.79551,46_03,,0,,
46_04,,県立中央病院通り,,40.827147,140.795483,46_04,,0,,
45_01,,南造道,,40.828035,140.789234,45_01,,0,,
45_02,,南造道,,40.828195,140.789958,45_02,,0,,
13_01,,岡造道一丁目,,40.827639,140.782557,13_01,,0,,
13_02,,岡造道一丁目,,40.827815,140.781414,13_02,,0,,
12_01,,合浦公園前,,40.826629,140.778399,12_01,,0,,
12_02,,合浦公園前,,40.827094,140.778626,12_02,,0,,
11_01,,合浦町,,40.826042,140.775716,11_01,,0,,
11_02,,合浦町,,40.826014,140.774116,11_02,,0,,
11_03,,合浦町,,40.826736,140.774924,11_03,,0,,
11_04,,合浦町,,40.82676,140.77512,11_04,,0,,
10_01,,栄町二丁目,,40.825114,140.769955,10_01,,0,,
10_02,,栄町二丁目,,40.825339,140.769864,10_02,,0,,
9_01,,栄町一丁目,,40.824509,140.764496,9_01,,0,,
9_02,,栄町一丁目,,40.824854,140.765597,9_02,,0,,
8_01,,堤橋,,40.82404,140.760452,8_01,,0,,
8_02,,堤橋,,40.824326,140.760856,8_02,,0,,
7_01,,文化会館前,,40.823635,140.755404,7_01,,0,,
7_02,,文化会館前,,40.823917,140.755509,7_02,,0,,
6_01,,NTT青森支店前,,40.823318,140.751155,6_01,,0,,
6_02,,NTT青森支店前,,40.823576,140.751426,6_02,,0,,
5_01,,市役所前,,40.823004,140.746975,5_01,,0,,
5_02,,市役所前,,40.823217,140.74685,5_02,,0,,
4_01,,県庁前,,40.823389,140.741593,4_01,,0,,
4_02,,県庁前,,40.82387,140.74,4_02,,0,,
17_01,,新町一丁目,,40.826184,140.738013,17_01,,0,,
17_03,,新町一丁目,,40.82667,140.738979,17_03,,0,,
17_04,,新町一丁目,,40.827143,140.73787,17_04,,0,,
66_01,,アウガ前,,40.827685,140.736047,66_01,,0,,
1_01,（降車停留所）,青森駅,,40.8280809999999,140.734870428571,1_01,,0,,
1_02,②のりば,青森駅,,40.8281309999999,140.734587285714,1_02,,0,,
1_06,⑥のりば,青森駅,,40.82825,140.73485,1_06,,0,,
768_02,,平新田森越,,40.830648,140.814034,768_02,,0,,
767_02,,平新田児童館前,,40.831973,140.812797,767_02,,0,,
144_02,,原別小学校前,,40.833659,140.809919,144_02,,0,,
143_02,,東高校前,,40.836595,140.805346,143_02,,0,,
37_02,,東高校通り,,40.837974,140.803669,37_02,,0,,
49_01,,矢作,,40.83741,140.80066,49_01,,0,,
48_01,,八重田,,40.835517,140.79664,48_01,,0,,
833_03,,自治研修所前,,40.831489,140.791047,833_03,,0,,
833_04,,自治研修所前,,40.831897,140.790792,833_04,,0,,
47_01,,県立中央病院前,,40.829474,140.792247,47_01,,0,,
47_03,,県立中央病院前,,40.829421,140.793408,47_03,,0,,
47_04,,県立中央病院前,,40.829429,140.793124,47_04,,0,,
2_02,,古川一丁目,,40.826467,140.736044,2_02,,0,,
14_01,,造道,,40.830226,140.785942,14_01,,0,,
14_02,,造道,,40.82981,140.784944,14_02,,0,,
14_03,,造道,,40.828487,140.784949,14_03,,0,,
832_01,,工業高校前,,40.842558,140.820462,832_01,,0,,
832_02,,工業高校前,,40.84338,140.819789,832_02,,0,,
134_01,,野内駅,,40.845938,140.817603571428,134_01,,0,,
134_02,,野内駅,,40.845974,140.817564571429,134_02,,0,,
726_01,,東部営業所,,40.845486,140.818679,726_01,,0,,
779_01,,浪岡駅前,,40.710365,140.581349285714,779_01,,0,,
779_02,,浪岡駅前,,40.7103822920067,140.581365823746,779_02,,0,,
778_01,,下町,,40.711159,140.5863,778_01,,0,,
778_02,,下町,,40.711267,140.586697,778_02,,0,,
788_01,,信用金庫前,,40.71133,140.591485,788_01,,0,,
788_02,,信用金庫前,,40.711421,140.591375,788_02,,0,,
787_01,,浪岡事務所通り,,40.711124,140.594023857143,787_01,,0,,
787_02,,浪岡事務所通り,,40.71119,140.594083428571,787_02,,0,,
786_01,,中世の館前,,40.713119,140.597161,786_01,,0,,
786_02,,中世の館前,,40.71384,140.597707,786_02,,0,,
785_01,,浪岡城跡前,,40.719159,140.606168,785_01,,0,,
785_02,,浪岡城跡前,,40.719209,140.605719,785_02,,0,,
784_01,,五本松,,40.720822,140.610624,784_01,,0,,
784_02,,五本松,,40.720981,140.610951,784_02,,0,,
783_01,,羽黒平,,40.722692,140.61470242857,783_01,,0,,
783_02,,羽黒平,,40.723238,140.615345,783_02,,0,,
782_01,,美人川公園前,,40.726279,140.621263,782_01,,0,,
782_02,,美人川公園前,,40.726489,140.621606,782_02,,0,,
781_01,,松山,,40.727397,140.626129,781_01,,0,,
781_02,,松山,,40.72755,140.626594,781_02,,0,,
780_01,,王余魚沢入口,,40.726207,140.653538571429,780_01,,0,,
780_02,,王余魚沢入口,,40.726218,140.653625,780_02,,0,,
631_01,,青森空港,,40.7381720000001,140.688476285714,631_01,,0,,
631_02,,青森空港,,40.7381499638006,140.688434477326,631_02,,0,,
811_01,,青い森病院前,,40.7462120000001,140.703707142857,811_01,,0,,
811_02,,青い森病院前,,40.7462109129809,140.703762484719,811_02,,0,,
812_01,,太陽台団地前,,40.7555873333333,140.715215238095,812_01,,0,,
812_02,,太陽台団地前,,40.7568076666667,140.711711095239,812_02,,0,,
318_01,,追分,,40.758181,140.718546857143,318_01,,0,,
318_02,,追分,,40.7581170000001,140.718473714285,318_02,,0,,
318_03,,追分,,40.7591101290379,140.718126180595,318_03,,0,,
318_04,,追分,,40.75911,140.717903285714,318_04,,0,,
317_01,,高田中学校通り,,40.762342,140.720477428572,317_01,,0,,
317_02,,高田中学校通り,,40.7623991978972,140.720361392915,317_02,,0,,
310_01,,高田駐在所前,,40.764246,140.723151,310_01,,0,,
310_02,,高田駐在所前,,40.764577,140.723317142857,310_02,,0,,
310_03,,高田駐在所前,,40.76367,140.721962142857,310_03,,0,,
310_04,,高田駐在所前,,40.76365,140.7219,310_04,,0,,
309_01,,高田小学校前,,40.768905,140.724259857143,309_01,,0,,
309_02,,高田小学校前,,40.768731,140.724234428571,309_02,,0,,
306_01,,高田日野,,40.772259,140.722805142857,306_01,,0,,
306_02,,高田日野,,40.772189,140.722630571429,306_02,,0,,
306_03,,高田日野,,40.77092,140.72141842857,306_03,,0,,
306_04,,高田日野,,40.770975,140.721400576118,306_04,,0,,
305_01,,稲荷神社前,,40.777851,140.726052428572,305_01,,0,,
305_02,,稲荷神社前,,40.777928,140.725938,305_02,,0,,
301_01,,荒川品川通り,,40.780308,140.728376428572,301_01,,0,,
301_02,,荒川品川通り,,40.780275,140.728192,301_02,,0,,
300_01,,荒川松尾通り,,40.782719,140.731337571428,300_01,,0,,
300_02,,荒川松尾通り,,40.78319,140.731654285714,300_02,,0,,
636_01,,荒川筒井通り,,40.784342,140.733826857143,636_01,,0,,
636_02,,荒川筒井通り,,40.78447,140.733719571428,636_02,,0,,
671_01,,青森朝日放送前,,40.7868683333333,140.739291428572,671_01,,0,,
671_02,,青森朝日放送前,,40.7866833333335,140.739405952381,671_02,,0,,
671_03,,青森朝日放送前,,40.785812,140.737267285714,671_03,,0,,
671_04,,青森朝日放送前,,40.78595,140.737225714286,671_04,,0,,
285_01,,荒川柴田,,40.789865,140.739011,285_01,,0,,
285_02,,荒川柴田,,40.789737,140.738767,285_02,,0,,
284_01,,青森刑務所前,,40.793876,140.739514,284_01,,0,,
284_02,,青森刑務所前,,40.79386,140.739289,284_02,,0,,
652_01,,社会教育センター前,,40.79571,140.739761,652_01,,0,,
652_02,,社会教育センター前,,40.795562,140.739477,652_02,,0,,
277_01,,農協会館前,,40.799302,140.740223,277_01,,0,,
277_02,,農協会館前,,40.799223,140.739925,277_02,,0,,
757_01,,大野若宮,,40.801101,140.74044,757_01,,0,,
757_02,,大野若宮,,40.801936,140.740232,757_02,,0,,
275_01,,大野十文字,,40.807418,140.741177,275_01,,0,,
275_02,,大野十文字,,40.806539,140.740839,275_02,,0,,
274_01,,南片岡,,40.808884,140.738581,274_01,,0,,
274_02,,南片岡,,40.808919,140.738077,274_02,,0,,
273_01,,甲田中学校通り,,40.810645,140.737009,273_01,,0,,
273_02,,甲田中学校通り,,40.811296,140.736647,273_02,,0,,
272_01,,甲田町,,40.813984,140.735944,272_01,,0,,
272_02,,甲田町,,40.814061,140.735821,272_02,,0,,
271_01,,常盤町,,40.815956,140.735223,271_01,,0,,
271_02,,常盤町,,40.815919,140.735133,271_02,,0,,
270_01,,南旭町,,40.816995,140.734654,270_01,,0,,
270_02,,南旭町,,40.817862,140.734295,270_02,,0,,
789_01,,八甲通り,,40.825835,140.739849,789_01,,0,,
316_01,,大柳辺入口,,40.725728,140.742059857143,316_01,,0,,
316_02,,大柳辺入口,,40.7256846846805,140.7420320485,316_02,,0,,
315_01,,稲荷沢,,40.73173,140.737723714286,315_01,,0,,
315_02,,稲荷沢,,40.7316886989108,140.737638823599,315_02,,0,,
810_01,,野沢横手,,40.739362,140.731081285715,810_01,,0,,
810_02,,野沢横手,,40.739313318507,140.730962649606,810_02,,0,,
314_01,,上野沢,,40.74381,140.726962714286,314_01,,0,,
314_02,,上野沢,,40.7437883249946,140.726884292434,314_02,,0,,
313_01,,野沢,,40.746279,140.725303714285,313_01,,0,,
313_02,,野沢,,40.7462378364574,140.725151002736,313_02,,0,,
312_01,,下野沢,,40.749193,140.725124714286,312_01,,0,,
312_02,,下野沢,,40.7491461077862,140.725064005383,312_02,,0,,
688_01,,下沢部,,40.753073,140.724240142857,688_01,,0,,
688_02,,下沢部,,40.7530692531193,140.724133861858,688_02,,0,,
638_01,,野沢沢部,,40.756188,140.723473285714,638_01,,0,,
638_02,,野沢沢部,,40.7561219641962,140.723309140951,638_02,,0,,
323_01,,入内,,40.7238061442377,140.718412360491,323_01,,0,,
323_02,,入内,,40.723805,140.718466714285,323_02,,0,,
322_01,,小金山神社前,,40.729833,140.715689142857,322_01,,0,,
322_02,,小金山神社前,,40.7297566105306,140.715584378988,322_02,,0,,
321_01,,桜刈,,40.7426990000001,140.717902714286,321_01,,0,,
321_02,,桜刈,,40.7426712410787,140.718011894881,321_02,,0,,
320_01,,小館,,40.746273,140.719384571429,320_01,,0,,
320_02,,小館,,40.7462585029193,140.719291775179,320_02,,0,,
319_01,,下小館,,40.750949,140.719245714286,319_01,,0,,
319_02,,下小館,,40.7509173038256,140.719121046344,319_02,,0,,
311_01,,高田中学校前,,40.762584,140.722135000001,311_01,,0,,
311_02,,高田中学校前,,40.7625548600713,140.722018299009,311_02,,0,,
308_01,,高田教育福祉センター前,,40.766877,140.721675,308_01,,0,,
308_02,,高田教育福祉センター前,,40.7669309916274,140.721566288425,308_02,,0,,
307_01,,高田保育園前,,40.769137,140.721,307_01,,0,,
307_02,,高田保育園前,,40.7691,140.72094,307_02,,0,,
304_01,,荒川品川,,40.779472,140.728786285714,304_01,,0,,
304_02,,荒川品川,,40.7795381030609,140.728747494828,304_02,,0,,
303_01,,荒川松尾,,40.781423,140.731614857143,303_01,,0,,
303_02,,荒川松尾,,40.7814897610699,140.731557050405,303_02,,0,,
302_01,,荒川筒井,,40.783101,140.734438428571,302_01,,0,,
302_02,,荒川筒井,,40.7831945201258,140.73446922966,302_02,,0,,
287_03,,荒川十文字,,40.783116,140.737204,287_03,,0,,
287_04,,荒川十文字,,40.783189,140.737246,287_04,,0,,
286_01,,荒川市民センター前,,40.78544,140.738453,286_01,,0,,
286_02,,荒川市民センター前,,40.785893,140.738303,286_02,,0,,
269_01,,上八ッ役,,40.783765,140.74224,269_01,,0,,
269_02,,上八ッ役,,40.7838286892532,140.74210843276,269_02,,0,,
268_01,,中八ッ役,,40.784781,140.745942,268_01,,0,,
268_02,,中八ッ役,,40.7848437199231,140.745852485699,268_02,,0,,
267_01,,八ッ役,,40.787251,140.74691,267_01,,0,,
267_02,,八ッ役,,40.7870686666667,140.747061380952,267_02,,0,,
276_01,,中央高校前,,40.800537,140.742257,276_01,,0,,
734_01,,イトーヨーカドー青森店前,,40.800137,140.749119,734_01,,0,,
691_01,,中央大橋通り,,40.809446,140.741541,691_01,,0,,
691_02,,中央大橋通り,,40.809035,140.741206,691_02,,0,,
31_01,,中央大橋,,40.820052,140.744539,31_01,,0,,
31_02,,中央大橋,,40.820158,140.744051,31_02,,0,,
624_01,,柳町通り,,40.822326,140.745308,624_01,,0,,
624_02,,柳町通り,,40.822314,140.744796,624_02,,0,,
15_01,,沢田橋,,40.832067,140.789823,15_01,,0,,
15_02,,沢田橋,,40.832142,140.789646,15_02,,0,,
43_01,,スポーツ会館前,,40.828766,140.774243,43_01,,0,,
43_02,,スポーツ会館前,,40.828779,140.774457,43_02,,0,,
41_01,,合浦小学校前,,40.828634,140.767844,41_01,,0,,
41_02,,合浦小学校前,,40.828834,140.769088,41_02,,0,,
40_01,,港町一丁目,,40.828219,140.765151714286,40_01,,0,,
40_02,,港町一丁目,,40.828518,140.766014857143,40_02,,0,,
38_01,,茶屋町,,40.827438,140.761733285714,38_01,,0,,
38_02,,茶屋町,,40.827566,140.762688857143,38_02,,0,,
23_01,,青柳橋,,40.827103,140.758954571429,23_01,,0,,
23_02,,青柳橋,,40.827207,140.758777,23_02,,0,,
22_01,,モルトン迎賓館前,,40.827048,140.754893142857,22_01,,0,,
22_02,,モルトン迎賓館前,,40.827162,140.754961714286,22_02,,0,,
21_01,,本町五丁目,,40.826982,140.750644,21_01,,0,,
21_02,,本町五丁目,,40.827071,140.749985,21_02,,0,,
20_01,,本町二丁目,,40.826916,140.746063,20_01,,0,,
20_02,,本町二丁目,,40.827027,140.746457285714,20_02,,0,,
19_01,,新町二丁目,,40.825608,140.744699,19_01,,0,,
19_02,,新町二丁目,,40.825754,140.744729,19_02,,0,,
18_01,,県庁通り,,40.826345,140.740559,18_01,,0,,
18_02,,県庁通り,,40.826185,140.742241,18_02,,0,,
791_01,,道の駅なみおか,,40.718167,140.580354714286,791_01,,0,,
791_02,,道の駅なみおか,,40.7182017361274,140.580360578368,791_02,,0,,
792_01,,青森病院,,40.710447,140.571145142857,792_01,,0,,
792_02,,青森病院,,40.7104564194436,140.571202700653,792_02,,0,,
777_01,,浪岡,,40.7122110000001,140.590269428568,777_01,,0,,
777_02,,浪岡,,40.7124420000001,140.590182714286,777_02,,0,,
776_01,,南警察署前,,40.717179,140.590187142858,776_01,,0,,
776_02,,南警察署前,,40.7180520000001,140.589458428572,776_02,,0,,
775_01,,浪岡北口,,40.720146,140.588909142857,775_01,,0,,
775_02,,浪岡北口,,40.720284,140.588751,775_02,,0,,
774_01,,杉沢,,40.725205,140.588835714285,774_01,,0,,
774_02,,杉沢,,40.725408,140.588660142857,774_02,,0,,
773_01,,高屋敷,,40.73185,140.587901428571,773_01,,0,,
773_02,,高屋敷,,40.73209,140.587777285714,773_02,,0,,
772_01,,高屋敷北口,,40.740445,140.587257714286,772_01,,0,,
772_02,,高屋敷北口,,40.738875,140.587181285714,772_02,,0,,
771_01,,徳才子,,40.750466,140.588873285714,771_01,,0,,
771_02,,徳才子,,40.750926,140.588875,771_02,,0,,
770_01,,大釈迦,,40.756706,140.590955285714,770_01,,0,,
770_02,,大釈迦,,40.7568999999999,140.590869714286,770_02,,0,,
769_01,,大釈迦北口,,40.766225,140.594020333333,769_01,,0,,
769_02,,大釈迦北口,,40.7665283333333,140.594134714286,769_02,,0,,
830_01,,新青森駅南口,,40.826777,140.693722,830_01,,0,,
830_02,,新青森駅南口,,40.82692,140.693721,830_02,,0,,
855_01,,八重田浄化センター前,,40.833341,140.792285,855_01,,0,,
660_01,,駅西口,,40.82885,140.7323,660_01,,0,,
660_03,,駅西口,,40.82871,140.7325,660_03,,0,,
660_04,,駅西口,,40.8286,140.7325,660_04,,0,,
